[
  {
    "name" : "Indian Hill High School",
    "city" : "Cincinnati",
    "state" : "OH",
    "country" : "United States",
    "lat" : "39.186615",
    "lng" : "-84.346146",
    "pic" : ""
  },
  {
    "name" : "Kenwood Chipotle",
    "city" : "Cincinnati",
    "state" : "OH",
    "country" : "United States",
    "lat" : "39.142469",
    "lng" : "-84.471445",
    "pic" : ""
  },
  {
    "name" : "Ohio Book Store",
    "city" : "Cincinnati",
    "state" : "OH",
    "country" : "United States",
    "lat" : "39.104654",
    "lng" : "-84.510420",
    "pic" : ""
  },
  {
    "name" : "Jeff Ruby's Steakhouse",
    "city" : "Cincinnati",
    "state" : "OH",
    "country" : "United States",
    "lat" : "39.104210",
    "lng" : "-84.511612",
    "pic" : ""
  },
  {
    "name" : "La Jolla Shores Beach",
    "city" : "San Diego",
    "state" : "CA",
    "country" : "United States",
    "lat" : "32.818891",
    "lng" : "-117.276095",
    "pic" : ""
  },
  {
    "name" : "Sacré-Cœur",
    "city" : "Paris",
    "state" : "",
    "country" : "France",
    "lat" : "48.886792",
    "lng" : "2.343003",
    "pic" : ""
  },
  {
    "name" : "East Hampton Main Beach",
    "city" : "East Hampton",
    "state" : "NY",
    "country" : "United States",
    "lat" : "40.944962",
    "lng" : "-72.191818",
    "pic" : ""
  },
  {
    "name" : "Hocking Hills State Park",
    "city" : "Logan",
    "state" : "OH",
    "country" : "United States",
    "lat" : "39.437740",
    "lng" : "-82.537979",
    "pic" : ""
  },
  {
    "name" : "The Lakefill",
    "city" : "Evanston",
    "state" : "IL",
    "country" : "United States",
    "lat" : "42.055201",
    "lng" : "-87.670797",
    "pic" : ""
  },
  {
    "name" : "Haleakalā",
    "city" : "Maui",
    "state" : "HI",
    "country" : "United States",
    "lat" : "20.698569",
    "lng" : "-156.272240",
    "pic" : ""
  },
  {
    "name" : "Breckenridge",
    "city" : "Breckenridge",
    "state" : "CO",
    "country" : "United States",
    "lat" : "39.487220",
    "lng" : "-106.048650",
    "pic" : ""
  },
  {
    "name" : "Claremont Hall",
    "city" : "New York",
    "state" : "NY",
    "country" : "United States",
    "lat" : "40.810080",
    "lng" : "-73.963920",
    "pic" : ""
  },
  {
    "name" : "East Pinetum",
    "city" : "New York",
    "state" : "NY",
    "country" : "United States",
    "lat" : "40.781224",
    "lng" : "-73.962995",
    "pic" : ""
  },
  {
    "name" : "The Great Lawn",
    "city" : "New York",
    "state" : "NY",
    "country" : "United States",
    "lat" : "40.781390",
    "lng" : "-73.966530",
    "pic" : ""
  },
  {
    "name" : "Double Tree - Crystal City",
    "city" : "Arlington",
    "state" : "VA",
    "country" : "United States",
    "lat" : "38.864010",
    "lng" : "-77.052680",
    "pic" : ""
  },
  {
    "name" : "Piss Alley",
    "city" : "Tokyo",
    "state" : "",
    "country" : "Japan",
    "lat" : "35.690320",
    "lng" : "139.690090",
    "pic" : ""
  },
  {
    "name" : "Max Caffè",
    "city" : "New York",
    "state" : "NY",
    "country" : "United states",
    "lat" : "40.810631",
    "lng" : "-73.958267",
    "pic" : ""
  },
  {
    "name" : "Seaside",
    "city" : "Seaside",
    "state" : "Florida",
    "country" : "United States",
    "lat" : "30.320540",
    "lng" : "-86.137820",
    "pic" : ""
  },
  {
    "name" : "Curry Heights Authentic Indian Cuisine",
    "city" : "Brooklyn",
    "state" : "NY",
    "country" : "United States",
    "lat" : "40.693690",
    "lng" : "-73.992170",
    "pic" : ""
  },
  {
    "name" : "Los Mariscos",
    "city" : "New York",
    "state" : "NY",
    "country" : "United States",
    "lat" : "40.740730",
    "lng" : "-74.002670",
    "pic" : ""
  },
  {
    "name" : "Crystal Pier",
    "city" : "San Diego",
    "state" : "CA",
    "country" : "United States",
    "lat" : "32.795682",
    "lng" : "-117.259521",
    "pic" : ""
  },
  {
    "name" : "Seaside",
    "city" : "Seaside",
    "state" : "Florida",
    "country" : "United States",
    "lat" : "30.320540",
    "lng" : "-86.137820",
    "pic" : ""
  },
  {
    "name" : "Seaside",
    "city" : "Seaside",
    "state" : "Florida",
    "country" : "United States",
    "lat" : "30.320540",
    "lng" : "-86.137820",
    "pic" : ""
  }
]